{
   "buildingDataBase":{
      "a mountain":{
         "BuildingName":"A Mountain",
         "BuildingCode":"AMTN",
         "Coordinates":{
            "Latitude":"33.4282515",
            "Longitude":"-111.935851"
         }
      },
      "a j matthews center":{
         "BuildingName":"A J Matthews Center",
         "BuildingCode":"MCENT",
         "Coordinates":{
            "Latitude":"33.4199292",
            "Longitude":"-111.935502"
         }
      },
      "adelphi commons":{
         "BuildingName":"Adelphi Commons",
         "BuildingCode":"ADELA",
         "Coordinates":{
            "Latitude":"33.4145124",
            "Longitude":"-111.9277695"
         }
      },
      "alberta b farrington softball stadium":{
         "BuildingName":"Alberta B. Farrington Softball Stadium",
         "BuildingCode":"ALBER",
         "Coordinates":{
            "Latitude":"33.4254902",
            "Longitude":"-111.9236519"
         }
      },
      "armstrong hall":{
         "BuildingName":"Armstrong Hall",
         "BuildingCode":"ARM",
         "Coordinates":{
            "Latitude":"33.4178808",
            "Longitude":"-111.929473"
         }
      },
      "art building":{
         "BuildingName":"Art Building",
         "BuildingCode":"ART",
         "Coordinates":{
            "Latitude":"33.4205064",
            "Longitude":"-111.9373537"
         }
      },
      "art warehouse":{
         "BuildingName":"Art Warehouse",
         "BuildingCode":"ARWH",
         "Coordinates":{
            "Latitude":"33.4209474",
            "Longitude":"-111.9379487"
         }
      },
      "artisan court at the brickyard":{
         "BuildingName":"Artisan Court at the Brickyard",
         "BuildingCode":"BYAC",
         "Coordinates":{
            "Latitude":"33.4234996",
            "Longitude":"-111.9390249"
         }
      },
      "asu art museum brickyard":{
         "BuildingName":"ASU Art Museum Brickyard",
         "BuildingCode":"CRCNTR",
         "Coordinates":{
            "Latitude":"33.4236243",
            "Longitude":"-111.9396125"
         }
      },
      "asu gammage":{
         "BuildingName":"ASU Gammage",
         "BuildingCode":"GGMA",
         "Coordinates":{
            "Latitude":"33.4162697",
            "Longitude":"-111.9380721"
         }
      },
      "asu performing and media arts":{
         "BuildingName":"ASU Performing and Media Arts",
         "BuildingCode":"APMA",
         "Coordinates":{
            "Latitude":"33.4234935",
            "Longitude":"-111.9242529"
         }
      },
      "asu police department":{
         "BuildingName":"ASU Police Department",
         "BuildingCode":"ASUPD",
         "Coordinates":{
            "Latitude":"33.4143327",
            "Longitude":"-111.9344567"
         }
      },
      "bateman physical sciences center":{
         "BuildingName":"Bateman Physical Sciences Center",
         "BuildingCode":"PSB",
         "Coordinates":{
            "Latitude":"33.4208495",
            "Longitude":"-111.9321245"
         }
      },
      "best hall":{
         "BuildingName":"Best Hall",
         "BuildingCode":"MB",
         "Coordinates":{
            "Latitude":"33.4158373",
            "Longitude":"-111.936492"
         }
      },
      "bulldog hall":{
         "BuildingName":"Bulldog Hall",
         "BuildingCode":"BDH",
         "Coordinates":{
            "Latitude":"33.418414",
            "Longitude":"-111.9308182"
         }
      },
      "business administration":{
         "BuildingName":"Business Administration",
         "BuildingCode":"BA",
         "Coordinates":{
            "Latitude":"33.4165566",
            "Longitude":"-111.9344819"
         }
      },
      "business administration c-wing":{
         "BuildingName":"Business Administration C-Wing",
         "BuildingCode":"BAC",
         "Coordinates":{
            "Latitude":"33.4166015",
            "Longitude":"-111.9338556"
         }
      },
      "campus children's center":{
         "BuildingName":"Campus Children's Center",
         "BuildingCode":"CHILD",
         "Coordinates":{
            "Latitude":"33.4198435",
            "Longitude":"-111.9247221"
         }
      },
      "center for family studies":{
         "BuildingName":"Center for Family Studies",
         "BuildingCode":"CFS",
         "Coordinates":{
            "Latitude":"33.4209768",
            "Longitude":"-111.9362488"
         }
      },
      "centerpoint":{
         "BuildingName":"Centerpoint",
         "BuildingCode":"CTRPT",
         "Coordinates":{
            "Latitude":"33.423821",
            "Longitude":"-111.9410695"
         }
      },
      "ceramics research center and brickyard gallery":{
         "BuildingName":"Ceramics Research Center and Brickyard Gallery",
         "BuildingCode":"CRCNTR",
         "Coordinates":{
            "Latitude":"33.4236243",
            "Longitude":"-111.9396125"
         }
      },
      "charles wexler hall":{
         "BuildingName":"Charles Wexler Hall",
         "BuildingCode":"WXLR",
         "Coordinates":{
            "Latitude":"33.420627",
            "Longitude":"-111.9321809"
         }
      },
      "college avenue marketplace":{
         "BuildingName":"College Avenue Marketplace",
         "BuildingCode":"CAM",
         "Coordinates":{
            "Latitude":"33.4227968",
            "Longitude":"-111.9345668"
         }
      },
      "community services building":{
         "BuildingName":"Community Services Building",
         "BuildingCode":"CSB",
         "Coordinates":{
            "Latitude":"33.440682",
            "Longitude":"-111.9405849"
         }
      },
      "cowden family resources":{
         "BuildingName":"Cowden Family Resources",
         "BuildingCode":"COWDN",
         "Coordinates":{
            "Latitude":"33.4210967",
            "Longitude":"-111.9355431"
         }
      },
      "creativity commons":{
         "BuildingName":"Creativity Commons",
         "BuildingCode":"CRTVC",
         "Coordinates":{
            "Latitude":"33.4181439",
            "Longitude":"-111.9323895"
         }
      },
      "danforth chapel":{
         "BuildingName":"Danforth Chapel",
         "BuildingCode":"CHAPL",
         "Coordinates":{
            "Latitude":"33.4181933",
            "Longitude":"-111.9350976"
         }
      },
      "daniel e noble science and engineering library":{
         "BuildingName":"Daniel E Noble Science and Engineering Library",
         "BuildingCode":"NOBLE",
         "Coordinates":{
            "Latitude":"33.4203272",
            "Longitude":"-111.931007"
         }
      },
      "desert arboretum park":{
         "BuildingName":"Desert Arboretum Park",
         "BuildingCode":"DAP",
         "Coordinates":{
            "Latitude":"33.4297105",
            "Longitude":"-111.9293032"
         }
      },
      "desert financial arena":{
         "BuildingName":"Desert Financial Arena",
         "BuildingCode":"DFA",
         "Coordinates":{
            "Latitude":"33.4245048",
            "Longitude":"-111.9310057"
         }
      },
      "design buildings":{
         "BuildingName":"Design Buildings",
         "BuildingCode":"CDN",
         "Coordinates":{
            "Latitude":"33.4215572",
            "Longitude":"-111.9370626"
         }
      },
      "discovery hall":{
         "BuildingName":"Discovery Hall",
         "BuildingCode":"DISCVRY",
         "Coordinates":{
            "Latitude":"33.4164657",
            "Longitude":"-111.935563"
         }
      },
      "dixie gammage hall":{
         "BuildingName":"Dixie Gammage Hall",
         "BuildingCode":"GHALL",
         "Coordinates":{
            "Latitude":"33.4191163",
            "Longitude":"-111.9363023"
         }
      },
      "ed and nadine carson student-athlete center":{
         "BuildingName":"Ed and Nadine Carson Student-Athlete Center",
         "BuildingCode":"CSAC",
         "Coordinates":{
            "Latitude":"33.4263639",
            "Longitude":"-111.9325849"
         }
      },
      "education lecture hall":{
         "BuildingName":"Education Lecture Hall",
         "BuildingCode":"EDC",
         "Coordinates":{
            "Latitude":"33.4179169",
            "Longitude":"-111.9378426"
         }
      },
      "e center":{
         "BuildingName":"Engineering Center",
         "BuildingCode":"ECA",
         "Coordinates":{
            "Latitude":"33.4188878",
            "Longitude":"-111.9327128"
         }
      },
      "engineering research center":{
         "BuildingName":"Engineering Research Center",
         "BuildingCode":"ENGRC",
         "Coordinates":{
            "Latitude":"33.4203244",
            "Longitude":"-111.9313552"
         }
      },
      "fulton center":{
         "BuildingName":"Fulton Center",
         "BuildingCode":"FULTN",
         "Coordinates":{
            "Latitude":"33.4222974",
            "Longitude":"-111.9344383"
         }
      },
      "future sun devil welcome center and college ave commons":{
         "BuildingName":"Future Sun Devil Welcome Center and College Ave Commons",
         "BuildingCode":"CAVC",
         "Coordinates":{
            "Latitude":"33.4234089",
            "Longitude":"-111.9352264"
         }
      },
      "g homer durham hall":{
         "BuildingName":"G Homer Durham Hall",
         "BuildingCode":"DH",
         "Coordinates":{
            "Latitude":"33.4208917",
            "Longitude":"-111.934581"
         }
      },
      "goldwater center":{
         "BuildingName":"Goldwater Center",
         "BuildingCode":"GWC",
         "Coordinates":{
            "Latitude":"33.4207916",
            "Longitude":"-111.9303122"
         }
      },
      "h b farmer education building":{
         "BuildingName":"H B Farmer Education Building",
         "BuildingCode":"ED",
         "Coordinates":{
            "Latitude":"33.4180342",
            "Longitude":"-111.9373076"
         }
      },
      "hayden hall":{
         "BuildingName":"Hayden Hall",
         "BuildingCode":"HAYDN",
         "Coordinates":{
            "Latitude":"33.4156796",
            "Longitude":"-111.9338506"
         }
      },
      "hayden library":{
         "BuildingName":"Hayden Library",
         "BuildingCode":"LIB",
         "Coordinates":{
            "Latitude":"33.4190755",
            "Longitude":"-111.9346142"
         }
      },
      "health service building":{
         "BuildingName":"Health Service Building",
         "BuildingCode":"HSB",
         "Coordinates":{
            "Latitude":"33.4213463",
            "Longitude":"-111.93304"
         }
      },
      "inclusivity at asu":{
         "BuildingName":"Inclusivity at ASU",
         "BuildingCode":"MU",
         "Coordinates":{
            "Latitude":"33.4177323",
            "Longitude":"-111.9344185"
         }
      },
      "interdisciplinary a & b":{
         "BuildingName":"Interdisciplinary A & B",
         "BuildingCode":"INTDS",
         "Coordinates":{
            "Latitude":"33.4175905",
            "Longitude":"-111.9354917"
         }
      },
      "interdisciplinary science and technology I":{
         "BuildingName":"Interdisciplinary Science and Technology I",
         "BuildingCode":"ISTB1",
         "Coordinates":{
            "Latitude":"33.4189185",
            "Longitude":"-111.9315224"
         }
      },
      "ira d payne educational hall":{
         "BuildingName":"Ira D Payne Educational Hall",
         "BuildingCode":"EDB",
         "Coordinates":{
            "Latitude":"33.4188896",
            "Longitude":"-111.9372772"
         }
      },
      "irish hall":{
         "BuildingName":"Irish Hall",
         "BuildingCode":"IRISH",
         "Coordinates":{
            "Latitude":"33.4146351",
            "Longitude":"-111.9349331"
         }
      },
      "j russell and bonita nelson fine arts center | asu art museum":{
         "BuildingName":"J Russell and Bonita Nelson Fine Arts Center | ASU Art Museum",
         "BuildingCode":"FAC",
         "Coordinates":{
            "Latitude":"33.4188446",
            "Longitude":"-111.9386525"
         }
      },
      "john w schwada building":{
         "BuildingName":"John W Schwada Building",
         "BuildingCode":"SCOB",
         "Coordinates":{
            "Latitude":"33.4187806",
            "Longitude":"-111.9306788"
         }
      },
      "l s neeb hall":{
         "BuildingName":"L S Neeb Hall",
         "BuildingCode":"NEEB",
         "Coordinates":{
            "Latitude":"33.4203413",
            "Longitude":"-111.9368889"
         }
      },
      "lattie f coor hall":{
         "BuildingName":"Lattie F Coor Hall",
         "BuildingCode":"COOR",
         "Coordinates":{
            "Latitude":"33.4194551",
            "Longitude":"-111.9374957"
         }
      },
      "life sciences center":{
         "BuildingName":"Life Sciences Center",
         "BuildingCode":"LSA",
         "Coordinates":{
            "Latitude":"33.4203103",
            "Longitude":"-111.9329497"
         }
      },
      "lyceum theatre":{
         "BuildingName":"Lyceum Theatre",
         "BuildingCode":"LYC",
         "Coordinates":{
            "Latitude":"33.4205213",
            "Longitude":"-111.9363888"
         }
      },
      "manzanita hall":{
         "BuildingName":"Manzanita Hall",
         "BuildingCode":"MANZH",
         "Coordinates":{
            "Latitude":"33.4226259",
            "Longitude":"-111.9303734"
         }
      },
      "matthews hall":{
         "BuildingName":"Matthews Hall",
         "BuildingCode":"MHALL",
         "Coordinates":{
            "Latitude":"33.4201485",
            "Longitude":"-111.9361268"
         }
      },
      "mcclintock hall":{
         "BuildingName":"McClintock Hall",
         "BuildingCode":"MCL",
         "Coordinates":{
            "Latitude":"33.4197042",
            "Longitude":"-111.9358208"
         }
      },
      "mccord hall":{
         "BuildingName":"McCord Hall",
         "BuildingCode":"MCRD",
         "Coordinates":{
            "Latitude":"33.416202",
            "Longitude":"-111.9333874"
         }
      },
      "memorial union":{
         "BuildingName":"Memorial Union",
         "BuildingCode":"MU",
         "Coordinates":{
            "Latitude":"33.4177323",
            "Longitude":"-111.9344185"
         }
      },
      "moeur building":{
         "BuildingName":"Moeur Building",
         "BuildingCode":"MOEUR",
         "Coordinates":{
            "Latitude":"33.4179176",
            "Longitude":"-111.9361855"
         }
      },
      "mona plummer aquatic complex":{
         "BuildingName":"Mona Plummer Aquatic Complex",
         "BuildingCode":"AQUAT",
         "Coordinates":{
            "Latitude":"33.4241151",
            "Longitude":"-111.9341413"
         }
      },
      "murdock hall":{
         "BuildingName":"Murdock Hall",
         "BuildingCode":"MUR",
         "Coordinates":{
            "Latitude":"33.4185928",
            "Longitude":"-111.9330399"
         }
      },
      "music building":{
         "BuildingName":"Music Building",
         "BuildingCode":"MUSIC",
         "Coordinates":{
            "Latitude":"33.4176261",
            "Longitude":"-111.9387296"
         }
      },
      "old main":{
         "BuildingName":"Old Main",
         "BuildingCode":"MAIN",
         "Coordinates":{
            "Latitude":"33.4205873",
            "Longitude":"-111.9340001"
         }
      },
      "orange mall green infrastructure project":{
         "BuildingName":"Orange Mall Green Infrastructure Project",
         "BuildingCode":"OMALL",
         "Coordinates":{
            "Latitude":"33.4183328",
            "Longitude":"-111.935237"
         }
      },
      "orchid house at the brickyard":{
         "BuildingName":"Orchid House at the Brickyard",
         "BuildingCode":"BYOH",
         "Coordinates":{
            "Latitude":"33.4240718",
            "Longitude":"-111.9387687"
         }
      },
      "packard baseball stadium":{
         "BuildingName":"Packard Baseball Stadium",
         "BuildingCode":"PBS",
         "Coordinates":{
            "Latitude":"33.4276807",
            "Longitude":"-111.9279877"
         }
      },
      "palo verde east":{
         "BuildingName":"Palo Verde East",
         "BuildingCode":"PVE",
         "Coordinates":{
            "Latitude":"33.4224163",
            "Longitude":"-111.9320081"
         }
      },
      "palo verde west":{
         "BuildingName":"Palo Verde West",
         "BuildingCode":"PVW",
         "Coordinates":{
            "Latitude":"33.4219811",
            "Longitude":"-111.9330749"
         }
      },
      "psychology building":{
         "BuildingName":"Psychology Building",
         "BuildingCode":"PSY",
         "Coordinates":{
            "Latitude":"33.4198736",
            "Longitude":"-111.9295509"
         }
      },
      "psychology north":{
         "BuildingName":"Psychology North",
         "BuildingCode":"PSYN",
         "Coordinates":{
            "Latitude":"33.4206512",
            "Longitude":"-111.9295819"
         }
      },
      "riches wrestling complex":{
         "BuildingName":"Riches Wrestling Complex",
         "BuildingCode":"WTF",
         "Coordinates":{
            "Latitude":"33.426494",
            "Longitude":"-111.9236934"
         }
      },
      "robson family player facility":{
         "BuildingName":"Robson Family Player Facility",
         "BuildingCode":"RFPF",
         "Coordinates":{
            "Latitude":"33.4248477",
            "Longitude":"-111.9276643"
         }
      },
      "ross-blakley hall":{
         "BuildingName":"Ross-Blakley Hall",
         "BuildingCode":"RBHL",
         "Coordinates":{
            "Latitude":"33.4170941",
            "Longitude":"-111.9297199"
         }
      },
      "social sciences building":{
         "BuildingName":"Social Sciences Building",
         "BuildingCode":"SS",
         "Coordinates":{
            "Latitude":"33.41978",
            "Longitude":"-111.9345321"
         }
      },
      "student pavilion":{
         "BuildingName":"Student Pavilion",
         "BuildingCode":"STPV",
         "Coordinates":{
            "Latitude":"33.4185542",
            "Longitude":"-111.9337034"
         }
      },
      "sun angel stadium joe selleh track":{
         "BuildingName":"Sun Angel Stadium Joe Selleh Track",
         "BuildingCode":"TRACK",
         "Coordinates":{
            "Latitude":"33.42646",
            "Longitude":"-111.927703"
         }
      },
      "sun devil fitness complex tempe":{
         "BuildingName":"Sun Devil Fitness Complex Tempe",
         "BuildingCode":"SDFCT",
         "Coordinates":{
            "Latitude":"33.414788",
            "Longitude":"-111.9307346"
         }
      },
      "sun devil hall":{
         "BuildingName":"Sun Devil Hall",
         "BuildingCode":"SDH",
         "Coordinates":{
            "Latitude":"33.41834",
            "Longitude":"-111.9330553"
         }
      },
      "sun devil stadium":{
         "BuildingName":"Sun Devil Stadium",
         "BuildingCode":"STAD",
         "Coordinates":{
            "Latitude":"33.4263639",
            "Longitude":"-111.9325849"
         }
      },
      "sustainability point of pride: asu police department":{
         "BuildingName":"Sustainability Point of Pride: ASU Police Department",
         "BuildingCode":"ASUPD",
         "Coordinates":{
            "Latitude":"33.4143327",
            "Longitude":"-111.9344567"
         }
      },
      "the biodesign institute - bldg a":{
         "BuildingName":"The Biodesign Institute - Bldg A",
         "BuildingCode":"BDA",
         "Coordinates":{
            "Latitude":"33.4193847",
            "Longitude":"-111.9282621"
         }
      },
      "the biodesign institute - bldg b":{
         "BuildingName":"The Biodesign Institute - Bldg B",
         "BuildingCode":"BDB",
         "Coordinates":{
            "Latitude":"33.4195371",
            "Longitude":"-111.928552"
         }
      },
      "tower center":{
         "BuildingName":"Tower Center",
         "BuildingCode":"TOWER",
         "Coordinates":{
            "Latitude":"33.4215655",
            "Longitude":"-111.93748420"
         }
      },
      "weatherup center":{
         "BuildingName":"Weatherup Center",
         "BuildingCode":"WUC",
         "Coordinates":{
            "Latitude":"33.4248193",
            "Longitude":"-111.923403"
         }
      },
      "wrigley hall":{
         "BuildingName":"Wrigley Hall",
         "BuildingCode":"WGHL",
         "Coordinates":{
            "Latitude":"33.4214838",
            "Longitude":"-111.9353372"
         }
      }
   },
   "departmentTourDataBase":{
      "Business":{
         "Academic Center":"location",
         "Administration":"location",
         "Agribusiness Center":"location",
         "Century Hall":"location",
         "Citrus Dining Pavilion":"location",
         "Cooley Ballroom":"location",
         "Picacho Hall":"location",
         "Startup Labs":"location",
         "Student Union":"location",
         "Sun Devil Fitness Complex":"location",
         "Sutton Hall":"location"
      },
      "Engineering":{
         "Academic Center":"location",
         "Administration":"location",
         "Algae Lab":"location",
         "Altitude Chamber":"location",
         "Century Hall":"location",
         "Citrus Dining Pavilion":"location",
         "Cooley Ballroom":"location",
         "Engineering Design Studio":"location",
         "Flight Simulator":"location",
         "Interdisciplinary Science and Technology III":"location",
         "Peralta Hall":"location",
         "Picacho Hall":"location",
         "Santan Hall":"location",
         "Simulator Building":"location",
         "Startup Labs":"location",
         "Student Union":"location",
         "Sun Devil Fitness Complex":"location",
         "Technology Center":"location",
         "Wanner Hall":"location"
      },
      "Integrative Arts and Sciences":{
         "Academic Center":"location",
         "Administration":"location",
         "Applied Arts Pavilion":"location",
         "Aravaipa Auditorium:":"location",
         "Century Hall":"location",
         "Citrus Dining Pavilion":"location",
         "Cooley Ballroom":"location",
         "Interdisciplinary Science and Technology III":"location",
         "Picacho Hall":"location",
         "Santa Catalina Hall":"location",
         "Santan Hall":"location",
         "Startup Labs":"location",
         "Student Union":"location",
         "Sun Devil Fitness Complex":"location",
         "Technology Center":"location"
      }
   },
   "scheduleDataBase":{
      "nhiremat":{
         "FridaySchedule":{
            "SDFC":"18:00",
            "Tower Center":"19:00",
            "sad":"02:55"
         },
         "MondaySchedule":{
            "Hayden":"15:00",
            "sad":"02:55",
            "ss":"02:55"
         },
         "SatardaySchedule":{
            "SDFC":"20:00",
            "Sun Devil Stadium":"13:00"
         },
         "SundaySchedule":{
            "Psychology North":"11:00"
         },
         "ThursdaySchedule":{
            "SDFC":"10:00",
            "Student Pavilion":"9:00"
         },
         "TuesdaySchedule":{
            "MemorialUnion":"16:00",
            "SDFC":"17:00"
         },
         "WednesdaySchedule":{
            "A Mountain":"11:00",
            "SDFC":"12:00",
            "art warehouse":"00:05",
            "shared":"02:55"
         }
      }
   },
   "sharedLocations":{
      "nhiremat":{
         "MondaySchedule":{
            "ss":{
               "latitude":"33",
               "longitude":"33"
            }
         },
         "WednesdaySchedule":{
            "shared":{
               "latitude":"33",
               "longitude":"33"
            }
         },
         "dummy":{
            "latitude":11,
            "longitude":11
         }
      }
   },
   "tempeDepartmentTourDataBase":{
      "Business":{
         "Business Administration":"location",
         "Business Administration C-Wing":"location",
         "Hayden Library":"location",
         "McCord Hall":"location",
         "Memorial Union":"location",
         "Noble Library":"location"
      },
      "Engineerig":{
         "Charles Wexler Hall":"location",
         "Engineering Center":"location",
         "Goldwater Center":"location"
      },
      "Liberal Arts and Science":{
         "Armstrong Hall":"location",
         "Charles Wexler Hall":"location",
         "Discovery Hall":"location",
         "Goldwater Center":"location",
         "Hayden Library":"location",
         "John W Schwada Building":"location",
         "Lattie F Coor Hall":"location",
         "Memorial Union":"location",
         "Noble Library":"location",
         "Wilson Hall":"location"
      }
   },
   "tourDataBase":{
      "PolyCampusTour":{
         "adelphicommons":"dummy",
         "artwarehouse":"dummy",
         "asupolicedepartment":"dummy",
         "besthall":"dummy",
         "cowdenfamilyresources":"dummy",
         "richeswrestlingcomplex":"dummy"
      },
      "TempeCampusTour":{
         "Hayden":"dummy",
         "Noble":"dummy",
         "SDFC":"dummy"
      },
      "testTour":{
         "adelphi commons":"dummy",
         "art building":"dummy",
         "community services building":"dummy"
      }
   }
}