{
	"A Mountain": {
		"BuildingName": "A Mountain",
		"BuildingCode": "AMTN",
		"Coordinates": {
			"Latitude": "33.4282515",
			"Longitude": "-111.935851"
		}
	},
	"A J Matthews Center": {
		"BuildingName": "A J Matthews Center",
		"BuildingCode": "MCENT",
		"Coordinates": {
			"Latitude": "33.4199292",
			"Longitude": "-111.935502"
		}
	},
	"Adelphi Commons": {
		"BuildingName": "Adelphi Commons",
		"BuildingCode": "ADELA",
		"Coordinates": {
			"Latitude": "33.4145124",
			"Longitude": "-111.9277695"
		}
	},
	"Alberta B Farrington Softball Stadium": {
		"BuildingName": "Alberta B. Farrington Softball Stadium",
		"BuildingCode": "ALBER",
		"Coordinates": {
			"Latitude": "33.4254902",
			"Longitude": "-111.9236519"
		}
	},
	"Armstrong Hall": {
		"BuildingName": "Armstrong Hall",
		"BuildingCode": "ARM",
		"Coordinates": {
			"Latitude": "33.4178808",
			"Longitude": "-111.929473"
		}
	},
	"Art Building": {
		"BuildingName": "Art Building",
		"BuildingCode": "ART",
		"Coordinates": {
			"Latitude": "33.4205064",
			"Longitude": "-111.9373537"
		}
	},
	"Art Warehouse": {
		"BuildingName": "Art Warehouse",
		"BuildingCode": "ARWH",
		"Coordinates": {
			"Latitude": "33.4209474",
			"Longitude": "-111.9379487"
		}
	},
	"Artisan Court at the Brickyard": {
		"BuildingName": "Artisan Court at the Brickyard",
		"BuildingCode": "BYAC",
		"Coordinates": {
			"Latitude": "33.4234996",
			"Longitude": "-111.9390249"
		}
	},
	"ASU Art Museum Brickyard": {
		"BuildingName": "ASU Art Museum Brickyard",
		"BuildingCode": "CRCNTR",
		"Coordinates": {
			"Latitude": "33.4236243",
			"Longitude": "-111.9396125"
		}
	},
	"ASU Gammage": {
		"BuildingName": "ASU Gammage",
		"BuildingCode": "GGMA",
		"Coordinates": {
			"Latitude": "33.4162697",
			"Longitude": "-111.9380721"
		}
	},
	"ASU Performing and Media Arts": {
		"BuildingName": "ASU Performing and Media Arts",
		"BuildingCode": "APMA",
		"Coordinates": {
			"Latitude": "33.4234935",
			"Longitude": "-111.9242529"
		}
	},
	"ASU Police Department": {
		"BuildingName": "ASU Police Department",
		"BuildingCode": "ASUPD",
		"Coordinates": {
			"Latitude": "33.4143327",
			"Longitude": "-111.9344567"
		}
	},
	"Bateman Physical Sciences Center": {
		"BuildingName": "Bateman Physical Sciences Center",
		"BuildingCode": "PSB",
		"Coordinates": {
			"Latitude": "33.4208495",
			"Longitude": "-111.9321245"
		}
	},
	"Best Hall": {
		"BuildingName": "Best Hall",
		"BuildingCode": "MB",
		"Coordinates": {
			"Latitude": "33.4158373",
			"Longitude": "-111.936492"
		}
	},
	"Bulldog Hall": {
		"BuildingName": "Bulldog Hall",
		"BuildingCode": "BDH",
		"Coordinates": {
			"Latitude": "33.418414",
			"Longitude": "-111.9308182"
		}
	},
	"Business Administration": {
		"BuildingName": "Business Administration",
		"BuildingCode": "BA",
		"Coordinates": {
			"Latitude": "33.4165566",
			"Longitude": "-111.9344819"
		}
	},
	"Business Administration C-Wing": {
		"BuildingName": "Business Administration C-Wing",
		"BuildingCode": "BAC",
		"Coordinates": {
			"Latitude": "33.4166015",
			"Longitude": "-111.9338556"
		}
	},
	"Campus Children's Center": {
		"BuildingName": "Campus Children's Center",
		"BuildingCode": "CHILD",
		"Coordinates": {
			"Latitude": "33.4198435",
			"Longitude": "-111.9247221"
		}
	},
	"Center for Family Studies": {
		"BuildingName": "Center for Family Studies",
		"BuildingCode": "CFS",
		"Coordinates": {
			"Latitude": "33.4209768",
			"Longitude": "-111.9362488"
		}
	},
	"Centerpoint": {
		"BuildingName": "Centerpoint",
		"BuildingCode": "CTRPT",
		"Coordinates": {
			"Latitude": "33.423821",
			"Longitude": "-111.9410695"
		}
	},
	"Ceramics Research Center and Brickyard Gallery": {
		"BuildingName": "Ceramics Research Center and Brickyard Gallery",
		"BuildingCode": "CRCNTR",
		"Coordinates": {
			"Latitude": "33.4236243",
			"Longitude": "-111.9396125"
		}
	},
	"Charles Wexler Hall": {
		"BuildingName": "Charles Wexler Hall",
		"BuildingCode": "WXLR",
		"Coordinates": {
			"Latitude": "33.420627",
			"Longitude": "-111.9321809"
		}
	},
	"College Avenue Marketplace": {
		"BuildingName": "College Avenue Marketplace",
		"BuildingCode": "CAM",
		"Coordinates": {
			"Latitude": "33.4227968",
			"Longitude": "-111.9345668"
		}
	},
	"Community Services Building": {
		"BuildingName": "Community Services Building",
		"BuildingCode": "CSB",
		"Coordinates": {
			"Latitude": "33.440682",
			"Longitude": "-111.9405849"
		}
	},
	"Cowden Family Resources": {
		"BuildingName": "Cowden Family Resources",
		"BuildingCode": "COWDN",
		"Coordinates": {
			"Latitude": "33.4210967",
			"Longitude": "-111.9355431"
		}
	},
	"Creativity Commons": {
		"BuildingName": "Creativity Commons",
		"BuildingCode": "CRTVC",
		"Coordinates": {
			"Latitude": "33.4181439",
			"Longitude": "-111.9323895"
		}
	},
	"Danforth Chapel": {
		"BuildingName": "Danforth Chapel",
		"BuildingCode": "CHAPL",
		"Coordinates": {
			"Latitude": "33.4181933",
			"Longitude": "-111.9350976"
		}
	},
	"Daniel E Noble Science and Engineering Library": {
		"BuildingName": "Daniel E Noble Science and Engineering Library",
		"BuildingCode": "NOBLE",
		"Coordinates": {
			"Latitude": "33.4203272",
			"Longitude": "-111.931007"
		}
	},
	"Desert Arboretum Park": {
		"BuildingName": "Desert Arboretum Park",
		"BuildingCode": "DAP",
		"Coordinates": {
			"Latitude": "33.4297105",
			"Longitude": "-111.9293032"
		}
	},
	"Desert Financial Arena": {
		"BuildingName": "Desert Financial Arena",
		"BuildingCode": "DFA",
		"Coordinates": {
			"Latitude": "33.4245048",
			"Longitude": "-111.9310057"
		}
	},
	"Design Buildings": {
		"BuildingName": "Design Buildings",
		"BuildingCode": "CDN",
		"Coordinates": {
			"Latitude": "33.4215572",
			"Longitude": "-111.9370626"
		}
	},
	"Discovery Hall": {
		"BuildingName": "Discovery Hall",
		"BuildingCode": "DISCVRY",
		"Coordinates": {
			"Latitude": "33.4164657",
			"Longitude": "-111.935563"
		}
	},
	"Dixie Gammage Hall": {
		"BuildingName": "Dixie Gammage Hall",
		"BuildingCode": "GHALL",
		"Coordinates": {
			"Latitude": "33.4191163",
			"Longitude": "-111.9363023"
		}
	},
	"Ed and Nadine Carson Student-Athlete Center": {
		"BuildingName": "Ed and Nadine Carson Student-Athlete Center",
		"BuildingCode": "CSAC",
		"Coordinates": {
			"Latitude": "33.4263639",
			"Longitude": "-111.9325849"
		}
	},
	"Education Lecture Hall": {
		"BuildingName": "Education Lecture Hall",
		"BuildingCode": "EDC",
		"Coordinates": {
			"Latitude": "33.4179169",
			"Longitude": "-111.9378426"
		}
	},
	"Engineering Center": {
		"BuildingName": "Engineering Center",
		"BuildingCode": "ECA",
		"Coordinates": {
			"Latitude": "33.4188878",
			"Longitude": "-111.9327128"
		}
	},
	"Engineering Research Center": {
		"BuildingName": "Engineering Research Center",
		"BuildingCode": "ENGRC",
		"Coordinates": {
			"Latitude": "33.4203244",
			"Longitude": "-111.9313552"
		}
	},
	"Fulton Center": {
		"BuildingName": "Fulton Center",
		"BuildingCode": "FULTN",
		"Coordinates": {
			"Latitude": "33.4222974",
			"Longitude": "-111.9344383"
		}
	},
	"Future Sun Devil Welcome Center and College Ave Commons": {
		"BuildingName": "Future Sun Devil Welcome Center and College Ave Commons",
		"BuildingCode": "CAVC",
		"Coordinates": {
			"Latitude": "33.4234089",
			"Longitude": "-111.9352264"
		}
	},
	"G Homer Durham Hall": {
		"BuildingName": "G Homer Durham Hall",
		"BuildingCode": "DH",
		"Coordinates": {
			"Latitude": "33.4208917",
			"Longitude": "-111.934581"
		}
	},
	"Goldwater Center": {
		"BuildingName": "Goldwater Center",
		"BuildingCode": "GWC",
		"Coordinates": {
			"Latitude": "33.4207916",
			"Longitude": "-111.9303122"
		}
	},
	"H B Farmer Education Building": {
		"BuildingName": "H B Farmer Education Building",
		"BuildingCode": "ED",
		"Coordinates": {
			"Latitude": "33.4180342",
			"Longitude": "-111.9373076"
		}
	},
	"Hayden Hall": {
		"BuildingName": "Hayden Hall",
		"BuildingCode": "HAYDN",
		"Coordinates": {
			"Latitude": "33.4156796",
			"Longitude": "-111.9338506"
		}
	},
	"Hayden Library": {
		"BuildingName": "Hayden Library",
		"BuildingCode": "LIB",
		"Coordinates": {
			"Latitude": "33.4190755",
			"Longitude": "-111.9346142"
		}
	},
	"Health Service Building": {
		"BuildingName": "Health Service Building",
		"BuildingCode": "HSB",
		"Coordinates": {
			"Latitude": "33.4213463",
			"Longitude": "-111.93304"
		}
	},
	"Inclusivity at ASU": {
		"BuildingName": "Inclusivity at ASU",
		"BuildingCode": "MU",
		"Coordinates": {
			"Latitude": "33.4177323",
			"Longitude": "-111.9344185"
		}
	},
	"Interdisciplinary A & B": {
		"BuildingName": "Interdisciplinary A & B",
		"BuildingCode": "INTDS",
		"Coordinates": {
			"Latitude": "33.4175905",
			"Longitude": "-111.9354917"
		}
	},
	"Interdisciplinary Science and Technology I": {
		"BuildingName": "Interdisciplinary Science and Technology I",
		"BuildingCode": "ISTB1",
		"Coordinates": {
			"Latitude": "33.4189185",
			"Longitude": "-111.9315224"
		}
	},
	"Ira D Payne Educational Hall": {
		"BuildingName": "Ira D Payne Educational Hall",
		"BuildingCode": "EDB",
		"Coordinates": {
			"Latitude": "33.4188896",
			"Longitude": "-111.9372772"
		}
	},
	"Irish Hall": {
		"BuildingName": "Irish Hall",
		"BuildingCode": "IRISH",
		"Coordinates": {
			"Latitude": "33.4146351",
			"Longitude": "-111.9349331"
		}
	},
	"J Russell and Bonita Nelson Fine Arts Center | ASU Art Museum": {
		"BuildingName": "J Russell and Bonita Nelson Fine Arts Center | ASU Art Museum",
		"BuildingCode": "FAC",
		"Coordinates": {
			"Latitude": "33.4188446",
			"Longitude": "-111.9386525"
		}
	},
	"John W Schwada Building": {
		"BuildingName": "John W Schwada Building",
		"BuildingCode": "SCOB",
		"Coordinates": {
			"Latitude": "33.4187806",
			"Longitude": "-111.9306788"
		}
	},
	"L S Neeb Hall": {
		"BuildingName": "L S Neeb Hall",
		"BuildingCode": "NEEB",
		"Coordinates": {
			"Latitude": "33.4203413",
			"Longitude": "-111.9368889"
		}
	},
	"Lattie F Coor Hall": {
		"BuildingName": "Lattie F Coor Hall",
		"BuildingCode": "COOR",
		"Coordinates": {
			"Latitude": "33.4194551",
			"Longitude": "-111.9374957"
		}
	},
	"Life Sciences Center": {
		"BuildingName": "Life Sciences Center",
		"BuildingCode": "LSA",
		"Coordinates": {
			"Latitude": "33.4203103",
			"Longitude": "-111.9329497"
		}
	},
	"Lyceum Theatre": {
		"BuildingName": "Lyceum Theatre",
		"BuildingCode": "LYC",
		"Coordinates": {
			"Latitude": "33.4205213",
			"Longitude": "-111.9363888"
		}
	},
	"Manzanita Hall": {
		"BuildingName": "Manzanita Hall",
		"BuildingCode": "MANZH",
		"Coordinates": {
			"Latitude": "33.4226259",
			"Longitude": "-111.9303734"
		}
	},
	"Matthews Hall": {
		"BuildingName": "Matthews Hall",
		"BuildingCode": "MHALL",
		"Coordinates": {
			"Latitude": "33.4201485",
			"Longitude": "-111.9361268"
		}
	},
	"McClintock Hall": {
		"BuildingName": "McClintock Hall",
		"BuildingCode": "MCL",
		"Coordinates": {
			"Latitude": "33.4197042",
			"Longitude": "-111.9358208"
		}
	},
	"McCord Hall": {
		"BuildingName": "McCord Hall",
		"BuildingCode": "MCRD",
		"Coordinates": {
			"Latitude": "33.416202",
			"Longitude": "-111.9333874"
		}
	},
	"Memorial Union": {
		"BuildingName": "Memorial Union",
		"BuildingCode": "MU",
		"Coordinates": {
			"Latitude": "33.4177323",
			"Longitude": "-111.9344185"
		}
	},
	"Moeur Building": {
		"BuildingName": "Moeur Building",
		"BuildingCode": "MOEUR",
		"Coordinates": {
			"Latitude": "33.4179176",
			"Longitude": "-111.9361855"
		}
	},
	"Mona Plummer Aquatic Complex": {
		"BuildingName": "Mona Plummer Aquatic Complex",
		"BuildingCode": "AQUAT",
		"Coordinates": {
			"Latitude": "33.4241151",
			"Longitude": "-111.9341413"
		}
	},
	"Murdock Hall": {
		"BuildingName": "Murdock Hall",
		"BuildingCode": "MUR",
		"Coordinates": {
			"Latitude": "33.4185928",
			"Longitude": "-111.9330399"
		}
	},
	"Music Building": {
		"BuildingName": "Music Building",
		"BuildingCode": "MUSIC",
		"Coordinates": {
			"Latitude": "33.4176261",
			"Longitude": "-111.9387296"
		}
	},
	"Old Main": {
		"BuildingName": "Old Main",
		"BuildingCode": "MAIN",
		"Coordinates": {
			"Latitude": "33.4205873",
			"Longitude": "-111.9340001"
		}
	},
	"Orange Mall Green Infrastructure Projec": {
		"BuildingName": "Orange Mall Green Infrastructure Project",
		"BuildingCode": "OMALL",
		"Coordinates": {
			"Latitude": "33.4183328",
			"Longitude": "-111.935237"
		}
	},
	"Orchid House at the Brickyard": {
		"BuildingName": "Orchid House at the Brickyard",
		"BuildingCode": "BYOH",
		"Coordinates": {
			"Latitude": "33.4240718",
			"Longitude": "-111.9387687"
		}
	},
	"Packard Baseball Stadium": {
		"BuildingName": "Packard Baseball Stadium",
		"BuildingCode": "PBS",
		"Coordinates": {
			"Latitude": "33.4276807",
			"Longitude": "-111.9279877"
		}
	},
	"Palo Verde East": {
		"BuildingName": "Palo Verde East",
		"BuildingCode": "PVE",
		"Coordinates": {
			"Latitude": "33.4224163",
			"Longitude": "-111.9320081"
		}
	},
	"Palo Verde West": {
		"BuildingName": "Palo Verde West",
		"BuildingCode": "PVW",
		"Coordinates": {
			"Latitude": "33.4219811",
			"Longitude": "-111.9330749"
		}
	},
	"Psychology Building": {
		"BuildingName": "Psychology Building",
		"BuildingCode": "PSY",
		"Coordinates": {
			"Latitude": "33.4198736",
			"Longitude": "-111.9295509"
		}
	},
	"Psychology North": {
		"BuildingName": "Psychology North",
		"BuildingCode": "PSYN",
		"Coordinates": {
			"Latitude": "33.4206512",
			"Longitude": "-111.9295819"
		}
	},
	"Riches Wrestling Complex": {
		"BuildingName": "Riches Wrestling Complex",
		"BuildingCode": "WTF",
		"Coordinates": {
			"Latitude": "33.426494",
			"Longitude": "-111.9236934"
		}
	},
	"Robson Family Player Facility": {
		"BuildingName": "Robson Family Player Facility",
		"BuildingCode": "RFPF",
		"Coordinates": {
			"Latitude": "33.4248477",
			"Longitude": "-111.9276643"
		}
	},
	"Ross-Blakley Hall": {
		"BuildingName": "Ross-Blakley Hall",
		"BuildingCode": "RBHL",
		"Coordinates": {
			"Latitude": "33.4170941",
			"Longitude": "-111.9297199"
		}
	},
	"Social Sciences Building": {
		"BuildingName": "Social Sciences Building",
		"BuildingCode": "SS",
		"Coordinates": {
			"Latitude": "33.41978",
			"Longitude": "-111.9345321"
		}
	},
	"Student Pavilion": {
		"BuildingName": "Student Pavilion",
		"BuildingCode": "STPV",
		"Coordinates": {
			"Latitude": "33.4185542",
			"Longitude": "-111.9337034"
		}
	},
	"Sun Angel Stadium Joe Selleh Track": {
		"BuildingName": "Sun Angel Stadium Joe Selleh Track",
		"BuildingCode": "TRACK",
		"Coordinates": {
			"Latitude": "33.42646",
			"Longitude": "-111.927703"
		}
	},
	"Sun Devil Fitness Complex Tempe": {
		"BuildingName": "Sun Devil Fitness Complex Tempe",
		"BuildingCode": "SDFCT",
		"Coordinates": {
			"Latitude": "33.414788",
			"Longitude": "-111.9307346"
		}
	},
	"Sun Devil Hall": {
		"BuildingName": "Sun Devil Hall",
		"BuildingCode": "SDH",
		"Coordinates": {
			"Latitude": "33.41834",
			"Longitude": "-111.9330553"
		}
	},
	"Sun Devil Stadium": {
		"BuildingName": "Sun Devil Stadium",
		"BuildingCode": "STAD",
		"Coordinates": {
			"Latitude": "33.4263639",
			"Longitude": "-111.9325849"
		}
	},
	"Sustainability Point of Pride: ASU Police Department": {
		"BuildingName": "Sustainability Point of Pride: ASU Police Department",
		"BuildingCode": "ASUPD",
		"Coordinates": {
			"Latitude": "33.4143327",
			"Longitude": "-111.9344567"
		}
	},
	"The Biodesign Institute - Bldg A": {
		"BuildingName": "The Biodesign Institute - Bldg A",
		"BuildingCode": "BDA",
		"Coordinates": {
			"Latitude": "33.4193847",
			"Longitude": "-111.9282621"
		}
	},
	"The Biodesign Institute - Bldg B": {
		"BuildingName": "The Biodesign Institute - Bldg B",
		"BuildingCode": "BDB",
		"Coordinates": {
			"Latitude": "33.4195371",
			"Longitude": "-111.928552"
		}
	},
	"Tower Center": {
		"BuildingName": "Tower Center",
		"BuildingCode": "TOWER",
		"Coordinates": {
			"Latitude": "33.4215655",
			"Longitude": "-111.93748420"
		}
	},
	"Weatherup Center": {
		"BuildingName": "Weatherup Center",
		"BuildingCode": "WUC",
		"Coordinates": {
			"Latitude": "33.4248193",
			"Longitude": "-111.923403"
		}
	},
	"Wrigley Hall": {
		"BuildingName": "Wrigley Hall",
		"BuildingCode": "WGHL",
		"Coordinates": {
			"Latitude": "33.4214838",
			"Longitude": "-111.9353372"
		}
	}
}